{"type":"FeatureCollection","features":[{"type":"Feature","geometry":{"type":"Point","coordinates":[-70.6807995,-33.4402513,0]},"properties":{"name":"Parque Quinta Normal","description":"Descripción: <br>zona: Matucana","Descripción":null,"zona":"Matucana"}},{"type":"Feature","geometry":{"type":"Point","coordinates":[-70.679791,-33.444656,0]},"properties":{"name":"Matucana 100","description":"Descripción: <br>zona: Matucana","Descripción":null,"zona":"Matucana"}},{"type":"Feature","geometry":{"type":"Point","coordinates":[-70.67944770000001,-33.4419882,0]},"properties":{"name":"Museo de la Memoria","description":"Descripción: <br>zona: Matucana","Descripción":null,"zona":"Matucana"}},{"type":"Feature","geometry":{"type":"Point","coordinates":[-70.680263,-33.423705,0]},"properties":{"name":"Parque Renato Poblete","description":"Descripción: <br>zona: Matucana","Descripción":null,"zona":"Matucana"}},{"type":"Feature","geometry":{"type":"Point","coordinates":[-70.6691533,-33.4191515,0]},"properties":{"name":"Liceo A 80 Polivalente Pdte. Balmaceda","description":"Descripción: <br>zona: Norte","Descripción":null,"zona":"Norte"}},{"type":"Feature","geometry":{"type":"Point","coordinates":[-70.7560837,-33.507416,0]},"properties":{"name":"Edificio Consistorial Maipú","description":"Descripción: <br>zona: Poniente","Descripción":null,"zona":"Poniente"}},{"type":"Feature","geometry":{"type":"Point","coordinates":[-70.6635368,-33.5570334,0]},"properties":{"name":"Centro Cívico Cultural El Bosque","description":"Descripción: <br>zona: Sur","Descripción":null,"zona":"Sur"}},{"type":"Feature","geometry":{"type":"Point","coordinates":[-70.6621045,-33.5586159,0]},"properties":{"name":"Parque Mapuche","description":"Descripción: <br>zona: Sur","Descripción":null,"zona":"Sur"}},{"type":"Feature","geometry":{"type":"Point","coordinates":[-70.6343544,-33.437082,0]},"properties":{"name":"Plaza Italia","description":"Descripción: Punto de encuentro<br>zona: Centro","Descripción":"Punto de encuentro","zona":"Centro"}}]}